~Version
 VERS              .         2.0                           : CWLS LOG ASCII STANDARD - VERSION 2.0
 WRAP              .         NO                            : ONE LINE PER DEPTH STEP
 DLM               .         SPACE                         : DELIMITING CHARACTER(SPACE TAB OR COMMA)
~Well Information
#_______________________________________________________________________________
#
#PARAMETER_NAME    .UNIT     VALUE                         : DESCRIPTION
#_______________________________________________________________________________
STRT               .m        3135                          : First reference value
STOP               .m        3867.25593922952              : Last reference value
STEP               .m        0                             : Step increment
NULL               .         -9999                         : Missing value
COMP               .                                       : Company
WELL               .         19                            : Well name
FLD                .         Zh_Khrest                     : Field
LOC                .                                       : Location
CNTY               .                                       : County
STAT               .                                       : State
CTRY               .                                       : Country
SRVC               .                                       : Service Company
DATE               .         11/06/2019                    : Date
UWI                .                                       : Unique Well ID
API                .                                       : API NUMBER
ORIGINALWELLNAME   .         019                           : 
WSTA               .         LOC                           : Well status
TVD                .         NO                            : TVD flag
w_prop             .unitless c                             : 
~Parameter Information Block
#_______________________________________________________________________________
#
#PARAMETER_NAME    .UNIT     VALUE                         : DESCRIPTION
#_______________________________________________________________________________
SET                .         Core                          : 
TLFamily_0_05-0_01mm .                                       : 
TLFamily_0_10-0_05mm .                                       : 
TLFamily_0_25-0_1mm .                                       : 
TLFamily_0_5-0_25mm .                                       : 
TLFamily_2-1mm     .                                       : 
TLFamily_3-2mm     .                                       : 
TLFamily_3mm       .                                       : 
TLFamily_Bulk_Density,_g/cm3 .                                       : 
TLFamily_CaCO3,_%  .                                       : 
TLFamily_DEPTH     .         Measured Depth                : 
TLFamily_DEPTH_ORIGINAL .         Measured Depth                : 
TLFamily_Permeability_horizontal,_mD .                                       : 
TLFamily_Permeability_vertical,_mD .                                       : 
TLFamily_Porosity,_% .                                       : 
TLFamily_Remarks   .                                       : 
TLFamily_Rock_Description .                                       : 
TLFamily_Water_saturation,_% .                                       : 
TLFamily__0_01mm   .                                       : 
TLFamily__0_5mm    .                                       : 
~Curve Information
#_______________________________________________________________________________
#
#LOGNAME           .UNIT     LOG_ID                        : DESCRIPTION
#_______________________________________________________________________________
DEPTH              .m                                      :  
0_05-0_01mm        .%                                      :  
0_5-0_25mm         .%                                      :  
0_10-0_05mm        .%                                      :  
0_25-0_1mm         .%                                      :  
2-1mm              .%                                      :  
3-2mm              .%                                      :  
3mm                .%                                      :  
_0_01mm            .%                                      :  
_0_5mm             .%                                      :  
Bulk_Density,_g/cm3 .g/cm3                                  :  
CaCO3,_%           .%                                      :  
DEPTH_ORIGINAL     .m                                      :  
Permeability_horizontal,_mD .mD                                     :  
Permeability_vertical,_mD .mD                                     :  
Porosity,_%        .%                                      :  
Remarks            .                                       :  
Rock_Description   .                                       :  
Water_saturation,_% .%                                      :  
~Ascii
# ...
3733.836223521159 -9999      -9999      -9999      -9999      -9999      -9999      -9999      -9999      -9999      -9999      5.57       3735.156   47.12      -9999      16.13      ""         "Medium grained Sandstone" -9999     
3734.105693416447 -9999      -9999      -9999      -9999      -9999      -9999      -9999      -9999      -9999      -9999      -9999      3735.438   44.05      -9999      15.37      ""         "Medium grained Sandstone" -9999     
3734.375163311735 3.68       70.62      10.09      11.93      -9999      -9999      -9999      2.06       1.62       -9999      9.5        3735.719   45.62      -9999      15.56      ""         "Medium grained Sandstone" 26.9      
3734.828886421683 3.13       40.01      5.69       15.38      -9999      -9999      -9999      9.24       26.65      -9999      6.23       3736.192   55.45      -9999      15.98      ""         "Medium grained Sandstone" -9999     
3735.013138678227 4.21       20.58      6.6        10.18      -9999      -9999      -9999      7.59       50.84      -9999      5.06       3736.385   182.62     -9999      17.68      ""         "Coarse/Medium-grained Sandstone" 18.2      
3735.197391892887 -9999      -9999      -9999      -9999      -9999      -9999      -9999      -9999      -9999      -9999      -9999      3736.577   120.34     -9999      17.4       ""         "Coarse-grained Sandstone" 19.1      
3735.381645107546 6.68       49.23      8.23       17.72      -9999      -9999      -9999      9          9.14       -9999      5.2        3736.769   83.69      -9999      17.34      ""         "Coarse-grained Sandstone" -9999     
3735.565897364091 5.17       42.96      4.88       15.44      -9999      -9999      -9999      5.19       26.36      -9999      7.22       3736.961   121.7      -9999      16.97      ""         "Medium grained Sandstone" -9999     
3735.75015057875 -9999      -9999      -9999      -9999      -9999      -9999      -9999      -9999      -9999      -9999      5.87       3737.154   91.98      -9999      16.71      ""         "Coarse/Medium-grained Sandstone" -9999     
3735.93440379341 -9999      -9999      -9999      -9999      -9999      -9999      -9999      -9999      -9999      -9999      -9999      3737.346   105.28     -9999      14.48      ""         "Coarse/Medium-grained Sandstone" -9999     
3736.11865700807 -9999      -9999      -9999      -9999      -9999      -9999      -9999      -9999      -9999      -9999      -9999      3737.539   109.87     -9999      14.5       ""         "Coarse/Medium-grained Sandstone" 17        
3736.302909264614 -9999      -9999      -9999      -9999      -9999      -9999      -9999      -9999      -9999      -9999      7.9        3737.731   62.65      -9999      15.88      ""         "Coarse/Medium-grained Sandstone" -9999     
3736.487162479274 3.97       38.05      9.13       18.74      -9999      -9999      -9999      1.99       28.12      -9999      6.06       3737.923   62.63      -9999      16.02      ""         "Coarse/Medium-grained Sandstone" -9999     
3736.671415693934 -9999      -9999      -9999      -9999      -9999      -9999      -9999      -9999      -9999      -9999      -9999      3738.115   12.88      -9999      12.17      ""         "Coarse/Medium-grained Sandstone" -9999     
3736.855667950478 -9999      -9999      -9999      -9999      -9999      -9999      -9999      -9999      -9999      -9999      -9999      3738.308   43.91      -9999      14.56      ""         "Coarse/Medium-grained Sandstone" -9999     
3737.039921165138 4.98       53.93      8.94       18.53      -9999      -9999      -9999      6.12       7.5        -9999      7.56       3738.5     10.03      -9999      11.81      ""         "Medium grained Sandstone" -9999     
3737.224174379798 -9999      -9999      -9999      -9999      -9999      -9999      -9999      -9999      -9999      -9999      5.5        3738.692   30.9       -9999      14.42      ""         "Medium grained Sandstone" -9999     
3737.408426636342 6.19       12.88      12.6       52.17      -9999      -9999      -9999      16.16      -9999      -9999      6.32       3738.885   5.92       -9999      14.23      ""         "Fine-grained Sandstone" -9999     
3737.592679851002 2.93       47.07      9.2        32.01      -9999      -9999      -9999      6.93       1.46       -9999      4.43       3739.077   -9999      -9999      14.49      "Permeability could not be measured, sample damaged/split." "Medium grained Sandstone" -9999     
3737.776933065662 7.7        21.73      10.76      46.62      -9999      -9999      -9999      11.08      2.11       -9999      5.2        3739.269   2.2        -9999      11.51      ""         "Coarse/Fine-grained Sandstone" -9999     
3737.961185322206 8.78       50.14      9.56       22.59      -9999      -9999      -9999      6.81       2.12       -9999      5.88       3739.461   33.27      -9999      15.54      ""         "Medium grained Sandstone" -9999     
3738.145438536866 -9999      -9999      -9999      -9999      -9999      -9999      -9999      -9999      -9999      -9999      5.55       3739.654   30.04      -9999      14.61      ""         "Medium grained Sandstone" -9999     
3738.329691751525 5.45       45.89      9.63       24.43      -9999      -9999      -9999      11.98      2.62       -9999      5.86       3739.846   30.8       -9999      14.74      ""         "Medium grained Sandstone" -9999     
3738.513944966185 -9999      -9999      -9999      -9999      -9999      -9999      -9999      -9999      -9999      -9999      4.49       3740.039   27.09      -9999      15.39      ""         "Medium grained Sandstone" -9999     
3738.69819722273 6.61       34.17      12.25      28.46      -9999      -9999      -9999      13.15      5.36       -9999      4.2        3740.231   35.73      -9999      15.72      ""         "Medium grained Sandstone" -9999     
3738.882450437389 -9999      -9999      -9999      -9999      -9999      -9999      -9999      -9999      -9999      -9999      -9999      3740.423   103.37     -9999      15.32      ""         "Medium grained Sandstone" -9999     
3739.066703652049 -9999      -9999      -9999      -9999      -9999      -9999      -9999      -9999      -9999      -9999      3.97       3740.615   85.23      -9999      17.18      ""         "Medium grained Sandstone" -9999     
3739.250955908593 4.98       53.93      8.94       18.53      -9999      -9999      -9999      6.12       7.5        -9999      7.56       3740.808   118.72     -9999      17.21      ""         "Medium grained Sandstone" 27.4      
3739.633440280321 7.56       25.16      11.38      43.11      -9999      -9999      -9999      12.51      0.28       -9999      5.67       3741.207   12.68      -9999      14.99      ""         "Coarse/Fine-grained Sandstone" -9999     
3739.831670479274 4.16       33.06      8          23.7       -9999      -9999      -9999      6.24       24.84      -9999      3.71       3741.414   14.3       -9999      15.84      ""         "Sandstone (different grains)" -9999     
3740.029901636342 -9999      -9999      -9999      -9999      -9999      -9999      -9999      -9999      -9999      -9999      4.48       3741.621   15.26      -9999      15.87      ""         "Sandstone (different grains)" -9999     
3740.228131835295 -9999      -9999      -9999      -9999      -9999      -9999      -9999      -9999      -9999      -9999      5.22       3741.828   2.37       -9999      12.68      ""         "Fine-grained Sandstone" -9999     
3740.426362992363 -9999      -9999      -9999      -9999      -9999      -9999      -9999      -9999      -9999      -9999      -9999      3742.034   3.22       -9999      13.45      ""         "Fine-grained Sandstone" -9999     
3740.624593191316 4.42       42.71      7.4        17.97      -9999      -9999      -9999      8.15       19.35      -9999      3.53       3742.241   52.23      -9999      16.49      ""         "Medium grained Sandstone" -9999     
