~Version
 VERS              .         2.0                           : CWLS LOG ASCII STANDARD - VERSION 2.0
 WRAP              .         NO                            : ONE LINE PER DEPTH STEP
 DLM               .         SPACE                         : DELIMITING CHARACTER(SPACE TAB OR COMMA)
~Well Information
#_______________________________________________________________________________
#
#PARAMETER_NAME    .UNIT     VALUE                         : DESCRIPTION
#_______________________________________________________________________________
STRT               .m        3135                          : First reference value
STOP               .m        3867.25593922952              : Last reference value
STEP               .m        0                             : Step increment
NULL               .         -9999                         : Missing value
COMP               .                                       : Company
WELL               .         19                            : Well name
FLD                .         Zh_Khrest                     : Field
LOC                .                                       : Location
CNTY               .                                       : County
STAT               .                                       : State
CTRY               .                                       : Country
SRVC               .                                       : Service Company
DATE               .         11/06/2019                    : Date
UWI                .                                       : Unique Well ID
API                .                                       : API NUMBER
ORIGINALWELLNAME   .         019                           : 
WSTA               .         LOC                           : Well status
TVD                .         NO                            : TVD flag
w_prop             .unitless c                             : 
~Parameter Information Block
#_______________________________________________________________________________
#
#PARAMETER_NAME    .UNIT     VALUE                         : DESCRIPTION
#_______________________________________________________________________________
SET                .         Core                          : 
TLFamily_0_05-0_01mm .                                       : 
TLFamily_0_10-0_05mm .                                       : 
TLFamily_0_25-0_1mm .                                       : 
TLFamily_0_5-0_25mm .                                       : 
TLFamily_2-1mm     .                                       : 
TLFamily_3-2mm     .                                       : 
TLFamily_3mm       .                                       : 
TLFamily_Bulk_Density,_g/cm3 .                                       : 
TLFamily_CaCO3,_%  .                                       : 
TLFamily_DEPTH     .         Measured Depth                : 
TLFamily_DEPTH_ORIGINAL .         Measured Depth                : 
TLFamily_Permeability_horizontal,_mD .                                       : 
TLFamily_Permeability_vertical,_mD .                                       : 
TLFamily_Porosity,_% .                                       : 
TLFamily_Remarks   .                                       : 
TLFamily_Rock_Description .                                       : 
TLFamily_Water_saturation,_% .                                       : 
TLFamily__0_01mm   .                                       : 
TLFamily__0_5mm    .                                       : 
~Curve Information
#_______________________________________________________________________________
#
#LOGNAME           .UNIT     LOG_ID                        : DESCRIPTION
#_______________________________________________________________________________
DEPTH              .m                                      :  
0_05-0_01mm        .%                                      :  
0_5-0_25mm         .%                                      :  
0_10-0_05mm        .%                                      :  
0_25-0_1mm         .%                                      :  
2-1mm              .%                                      :  
3-2mm              .%                                      :  
3mm                .%                                      :  
_0_01mm            .%                                      :  
_0_5mm             .%                                      :  
Bulk_Density,_g/cm3 .g/cm3                                  :  
CaCO3,_%           .%                                      :  
DEPTH_ORIGINAL     .m                                      :  
Permeability_horizontal,_mD .mD                                     :  
Permeability_vertical,_mD .mD                                     :  
Porosity,_%        .%                                      :  
Remarks            .                                       :  
Rock_Description   .                                       :  
Water_saturation,_% .%                                      :  
~Ascii
# ...
3773.247848760911 -9999      -9999      -9999      -9999      -9999      -9999      -9999      -9999      -9999      -9999      -9999      3772       190.83     -9999      18.04      ""         "Coarse/Medium-grained Sandstone" -9999     
3774.273636726528 -9999      -9999      -9999      -9999      -9999      -9999      -9999      -9999      -9999      -9999      6.55       3773       48.69      -9999      17.33      ""         "Coarse/Medium-grained Sandstone" -9999     
3775.299424692144 2.03       68.44      8.34       11.29      -9999      -9999      -9999      6.04       3.86       -9999      4.9        3774       76.59      -9999      17.77      ""         "Medium-grained Sandstone" -9999     
3776.32521265776 2.75       73.87      7.18       10         -9999      -9999      -9999      5.14       1.06       -9999      5.35       3775       69.15      -9999      17.47      ""         "Medium-grained Sandstone" -9999     
3777.351000623376 -9999      -9999      -9999      -9999      -9999      -9999      -9999      -9999      -9999      -9999      -9999      3776       59.83      -9999      17.17      ""         "Medium-grained Sandstone" -9999     
3816.729860972946 9.01       5.45       17.01      61.77      -9999      -9999      -9999      6.62       0.14       -9999      8.27       3814.389   0.48       -9999      12.38      ""         "Fine-grained Sandstone" -9999     
3817.755648938562 -9999      -9999      -9999      -9999      -9999      -9999      -9999      -9999      -9999      -9999      5.33       3815.389   0.49       -9999      9.3        ""         "Fine-grained Sandstone" -9999     
3818.781436904178 8.52       10.43      13.34      59.76      -9999      -9999      -9999      7.95       -9999      -9999      6.06       3816.389   0.95       -9999      11.73      ""         "Fine-grained Sandstone" -9999     
3819.807224869794 -9999      -9999      -9999      -9999      -9999      -9999      -9999      -9999      -9999      -9999      4.35       3817.389   0.47       -9999      9          ""         "Fine-grained Sandstone" -9999     
3820.819835637333 7.33       4.06       13.28      60.67      -9999      -9999      -9999      14.59      0.07       -9999      8.13       3818.389   0.48       -9999      8.87       ""         "Fine-grained Sandstone" -9999     
3821.823369206238 -9999      -9999      -9999      -9999      -9999      -9999      -9999      -9999      -9999      -9999      2.5        3819.389   0.96       -9999      10.25      ""         "Fine-grained Sandstone" -9999     
3822.826902775143 7.74       14.68      12.44      56.62      -9999      -9999      -9999      8.38       0.14       -9999      7.78       3820.389   1.14       -9999      11.41      ""         "Medium/Fine-grained Sandstone" 52.2      
3823.830436344047 -9999      -9999      -9999      -9999      -9999      -9999      -9999      -9999      -9999      -9999      6.5        3821.389   1.64       -9999      13.09      ""         "Medium/Fine-grained Sandstone" -9999     
3824.833969912952 -9999      -9999      -9999      -9999      -9999      -9999      -9999      -9999      -9999      -9999      6.67       3822.389   1.82       -9999      13.41      ""         "Medium grained Sandstone" -9999     
3825.837503481856 -9999      -9999      -9999      -9999      -9999      -9999      -9999      -9999      -9999      -9999      -9999      3823.389   2.39       -9999      13.9       ""         "Medium grained Sandstone" -9999     
3826.841037050761 8.03       15.42      12.01      58.14      -9999      -9999      -9999      6.4        -9999      -9999      6.19       3824.389   1.86       -9999      13.76      ""         "Medium/Fine-grained Sandstone" -9999     
3827.844570619665 8.44       35.3       8.09       41.28      -9999      -9999      -9999      5.98       0.91       -9999      5.18       3825.389   17.08      -9999      16.78      ""         "Medium/Fine-grained Sandstone" -9999     
3828.84810418857 -9999      -9999      -9999      -9999      -9999      -9999      -9999      -9999      -9999      -9999      4.73       3826.389   3.87       -9999      15.54      ""         "Fine/Medium-grained Sandstone" -9999     
3829.851637757475 -9999      -9999      -9999      -9999      -9999      -9999      -9999      -9999      -9999      -9999      4.82       3827.389   2.23       -9999      12.8       ""         "Fine/Medium-grained Sandstone" -9999     
3830.765968230973 0.98       23         2.37       6.69       -9999      -9999      -9999      0.41       66.55      -9999      4.34       3828.3     -9999      -9999      17.98      "Permeability could not be measured, sample damaged/split." "Coarse-grained Sandstone" -9999     
3830.855171326379 9.08       17.8       12.22      52.82      -9999      -9999      -9999      5.01       3.07       -9999      6.76       3828.389   1.99       -9999      14.36      ""         "Medium/Fine-grained Sandstone" -9999     
3831.067028301644 1.57       14.17      2.93       9.47       -9999      -9999      -9999      3.13       68.73      -9999      2.15       3828.6     229.36     -9999      17.23      ""         "Coarse-grained Sandstone" -9999     
3831.368088372316 3.93       27.6       5.94       15.87      -9999      -9999      -9999      1.87       44.79      -9999      3.37       3828.9     180.2      -9999      15.82      ""         "Coarse-grained Sandstone" 19.8      
3831.669148442987 2.46       21.87      3.08       7.11       -9999      -9999      -9999      8.4        57.08      -9999      2.49       3829.2     45.52      -9999      15.02      ""         "Coarse-grained Sandstone" -9999     
3831.858704895284 3.71       29.71      6.52       19.41      -9999      -9999      -9999      3.23       37.42      -9999      4.85       3829.389   3.23       -9999      13.31      ""         "Irregularly with Medium/Fine-grained" -9999     
3831.970208513658 -9999      -9999      -9999      -9999      -9999      -9999      -9999      -9999      -9999      -9999      -9999      3829.5     266.18     -9999      17.06      ""         "Coarse-grained Sandstone" -9999     
3832.27126858433 1.7        22.02      2.73       7.29       -9999      -9999      -9999      1.09       65.17      -9999      2.2        3829.8     104.22     -9999      16.36      ""         "Coarse-grained Sandstone" -9999     
3832.572328655001 1.98       21.74      3.54       8.23       -9999      -9999      -9999      2.97       61.55      -9999      2.2        3830.1     466.72     -9999      15.5       ""         "Coarse-grained Sandstone" 15.2      
3832.862238464188 5.72       50.6       10.11      25.94      -9999      -9999      -9999      5.23       2.4        -9999      5.69       3830.389   25.38      -9999      16.26      ""         "Fine/Medium-grained Sandstone" 30.5      
3832.873388725673 6.36       44.15      8.24       22.04      -9999      -9999      -9999      5.05       14.16      -9999      7.7        3830.4     3.41       -9999      13.03      ""         "Fine/Medium-grained Sandstone" -9999     
3833.174448796344 7.61       41.45      8.99       31.67      -9999      -9999      -9999      8.47       1.81       -9999      8          3830.7     1.71       -9999      12.3       ""         "Fine/Medium-grained Sandstone" -9999     
3833.475508867015 -9999      -9999      -9999      -9999      -9999      -9999      -9999      -9999      -9999      -9999      -9999      3831       4.27       -9999      13.53      ""         "Medium-grained Sandstone" -9999     
3833.776568937687 -9999      -9999      -9999      -9999      -9999      -9999      -9999      -9999      -9999      -9999      -9999      3831.3     1.66       -9999      11.74      ""         "Sandstone (different grains)" -9999     
3833.865772033093 7.13       47.83      8.74       29.37      -9999      -9999      -9999      4.76       2.17       -9999      4.66       3831.389   13.77      -9999      16.74      ""         "Fine/Medium-grained Sandstone" -9999     
