~Version
 VERS              .         2.0                           : CWLS LOG ASCII STANDARD - VERSION 2.0
 WRAP              .         NO                            : ONE LINE PER DEPTH STEP
 DLM               .         SPACE                         : DELIMITING CHARACTER(SPACE TAB OR COMMA)
~Well Information
#_______________________________________________________________________________
#
#PARAMETER_NAME    .UNIT     VALUE                         : DESCRIPTION
#_______________________________________________________________________________
STRT               .m        3135                          : First reference value
STOP               .m        3867.25593922952              : Last reference value
STEP               .m        0                             : Step increment
NULL               .         -9999                         : Missing value
COMP               .                                       : Company
WELL               .         19                            : Well name
FLD                .         Zh_Khrest                     : Field
LOC                .                                       : Location
CNTY               .                                       : County
STAT               .                                       : State
CTRY               .                                       : Country
SRVC               .                                       : Service Company
DATE               .         11/06/2019                    : Date
UWI                .                                       : Unique Well ID
API                .                                       : API NUMBER
ORIGINALWELLNAME   .         019                           : 
WSTA               .         LOC                           : Well status
TVD                .         NO                            : TVD flag
w_prop             .unitless c                             : 
~Parameter Information Block
#_______________________________________________________________________________
#
#PARAMETER_NAME    .UNIT     VALUE                         : DESCRIPTION
#_______________________________________________________________________________
SET                .         Core                          : 
TLFamily_0_05-0_01mm .                                       : 
TLFamily_0_10-0_05mm .                                       : 
TLFamily_0_25-0_1mm .                                       : 
TLFamily_0_5-0_25mm .                                       : 
TLFamily_2-1mm     .                                       : 
TLFamily_3-2mm     .                                       : 
TLFamily_3mm       .                                       : 
TLFamily_Bulk_Density,_g/cm3 .                                       : 
TLFamily_CaCO3,_%  .                                       : 
TLFamily_DEPTH     .         Measured Depth                : 
TLFamily_DEPTH_ORIGINAL .         Measured Depth                : 
TLFamily_Permeability_horizontal,_mD .                                       : 
TLFamily_Permeability_vertical,_mD .                                       : 
TLFamily_Porosity,_% .                                       : 
TLFamily_Remarks   .                                       : 
TLFamily_Rock_Description .                                       : 
TLFamily_Water_saturation,_% .                                       : 
TLFamily__0_01mm   .                                       : 
TLFamily__0_5mm    .                                       : 
~Curve Information
#_______________________________________________________________________________
#
#LOGNAME           .UNIT     LOG_ID                        : DESCRIPTION
#_______________________________________________________________________________
DEPTH              .m                                      :  
0_05-0_01mm        .%                                      :  
0_5-0_25mm         .%                                      :  
0_10-0_05mm        .%                                      :  
0_25-0_1mm         .%                                      :  
2-1mm              .%                                      :  
3-2mm              .%                                      :  
3mm                .%                                      :  
_0_01mm            .%                                      :  
_0_5mm             .%                                      :  
Bulk_Density,_g/cm3 .g/cm3                                  :  
CaCO3,_%           .%                                      :  
DEPTH_ORIGINAL     .m                                      :  
Permeability_horizontal,_mD .mD                                     :  
Permeability_vertical,_mD .mD                                     :  
Porosity,_%        .%                                      :  
Remarks            .                                       :  
Rock_Description   .                                       :  
Water_saturation,_% .%                                      :  
~Ascii
# ...
3834.077629008358 4.9        35.97      7.36       21.32      -9999      -9999      -9999      5.93       24.52      -9999      2.12       3831.6     6.84       -9999      14.13      ""         "Sandstone (different grains)" -9999     
3834.37868907903 -9999      -9999      -9999      -9999      -9999      -9999      -9999      -9999      -9999      -9999      -9999      3831.9     1.67       -9999      12.07      ""         "Sandstone (different grains)" -9999     
3834.679749149701 6.86       45.02      9.54       22.17      -9999      -9999      -9999      8.93       7.48       -9999      2.85       3832.2     12.18      -9999      15.62      ""         "Irregularly Medium-grained" -9999     
3834.869305601997 10.26      27.95      41.75      48.69      -9999      -9999      -9999      0.93       0.42       -9999      5.79       3832.389   4.43       -9999      15.16      ""         "Fine/Medium-grained Sandstone" -9999     
3834.980809220372 -9999      -9999      -9999      -9999      -9999      -9999      -9999      -9999      -9999      -9999      -9999      3832.5     1.47       -9999      11.78      ""         "Irregularly Medium-grained" -9999     
3835.281869291044 6.3        40.41      7.4        20.48      -9999      -9999      -9999      5.89       19.52      -9999      2.68       3832.8     18.39      -9999      14.46      ""         "Irregularly Medium-grained" 33.3      
3835.582929361715 11.75      57.29      6.91       13.68      -9999      -9999      -9999      8.5        1.87       -9999      3.55       3833.1     8.51       -9999      15.31      ""         "Medium-grained Sandstone" -9999     
3835.872839170902 -9999      -9999      -9999      -9999      -9999      -9999      -9999      -9999      -9999      -9999      4.05       3833.389   14.4       -9999      16.46      ""         "Fine/Medium-grained Sandstone" -9999     
3835.883989432386 8.27       58.3       4.96       9.3        -9999      -9999      -9999      3.88       15.29      -9999      3.26       3833.4     114.65     -9999      16.36      ""         "Coarse/Medium-grained Sandstone" -9999     
3836.185049503058 8.24       43.98      8.52       23.71      -9999      -9999      -9999      5.93       9.62       -9999      3          3833.7     14.76      -9999      14.9       ""         "Coarse/Medium-grained Sandstone" -9999     
3836.486109573729 6.53       46.73      4.21       20.13      -9999      -9999      -9999      5.06       17.34      -9999      2          3834       8.9        -9999      13.64      ""         "Coarse/Medium-grained Sandstone" -9999     
3836.787169644401 4.76       50.54      6.33       14.1       -9999      -9999      -9999      5.07       19.2       -9999      2.1        3834.3     15.16      -9999      14.86      ""         "Coarse/Medium-grained Sandstone" -9999     
3836.876372739807 1.13       57.15      4.93       15.08      -9999      -9999      -9999      1.91       19.8       -9999      5.38       3834.389   52.73      -9999      16.21      ""         "Coarse/Medium-grained Sandstone" 23.7      
3837.088229715072 -9999      -9999      -9999      -9999      -9999      -9999      -9999      -9999      -9999      -9999      -9999      3834.6     14.81      -9999      14.37      ""         "Coarse/Medium-grained Sandstone" -9999     
3837.389289785743 6.03       54.51      6.73       16.71      -9999      -9999      -9999      3.61       12.41      -9999      3.85       3834.9     48.61      -9999      15.8       ""         "Coarse/Medium-grained Sandstone" 16.2      
3837.690349856414 9.09       41.67      7.86       29.09      -9999      -9999      -9999      9.53       2.76       -9999      8.34       3835.2     2.54       -9999      11.41      ""         "Fine/Medium-grained Sandstone" -9999     
3837.879906308711 4.03       42.56      3.27       9.88       -9999      -9999      -9999      6.53       33.73      -9999      4.11       3835.389   49.33      -9999      15.1       ""         "Coarse/Medium-grained Sandstone" -9999     
3837.991409927086 -9999      -9999      -9999      -9999      -9999      -9999      -9999      -9999      -9999      -9999      7.87       3835.5     3.68       -9999      11.32      ""         "Fine/Medium-grained Sandstone" -9999     
3838.292469997758 -9999      -9999      -9999      -9999      -9999      -9999      -9999      -9999      -9999      -9999      -9999      3835.8     15.62      -9999      14.14      ""         "Fine/Medium-grained Sandstone" -9999     
3838.593530068429 7.78       44.53      7.57       22.72      -9999      -9999      -9999      7.3        10.1       -9999      4.9        3836.1     18.06      -9999      12.85      ""         "Fine/Medium-grained Sandstone" -9999     
3838.883439877616 3.32       66.76      9.21       10.73      -9999      -9999      -9999      6.45       3.53       -9999      3.7        3836.389   95.67      -9999      16.39      ""         "Medium-grained Sandstone" -9999     
3838.8945901391 6.5        62.28      8.37       10.1       -9999      -9999      -9999      7.28       5.47       -9999      3.66       3836.4     26.54      -9999      13.73      ""         "Medium-grained Sandstone" 27.4      
3839.195650209771 7.33       64.56      9.49       10.42      -9999      -9999      -9999      5.18       3.02       -9999      7.25       3836.7     36.75      -9999      13.5       ""         "Medium-grained Sandstone" 23.1      
3839.496710280443 5.85       62.33      11.23      11.36      -9999      -9999      -9999      6.2        3.03       -9999      3.2        3837       8.93       -9999      14.18      ""         "Medium-grained Sandstone" 35        
3839.797770351115 -9999      -9999      -9999      -9999      -9999      -9999      -9999      -9999      -9999      -9999      -9999      3837.3     32.12      -9999      13.6       ""         "Coarse/Medium-grained Sandstone" -9999     
3839.886973446521 -9999      -9999      -9999      -9999      -9999      -9999      -9999      -9999      -9999      -9999      5.92       3837.389   108.56     -9999      16.23      ""         "Medium-grained Sandstone" -9999     
3840.098830421785 4.43       49.57      9.29       10.43      -9999      -9999      -9999      0.85       25.43      -9999      6.64       3837.6     60.39      -9999      15.99      ""         "Coarse/Medium-grained Sandstone" 22.2      
3840.399890492457 -9999      -9999      -9999      -9999      -9999      -9999      -9999      -9999      -9999      -9999      -9999      3837.9     60.18      -9999      16.07      ""         "Medium-grained Sandstone" -9999     
3840.700950563128 7.78       60.65      8.14       12.88      -9999      -9999      -9999      7.37       3.18       -9999      5.8        3838.2     5.39       -9999      12.38      ""         "Medium-grained Sandstone" 36.6      
3840.890507015425 3.29       66.08      8.41       9.46       -9999      -9999      -9999      4          8.76       -9999      4.87       3838.389   124.87     -9999      16.54      ""         "Medium-grained Sandstone" 19.8      
3841.0020106338 5.97       50.38      6.52       19.77      -9999      -9999      -9999      4.11       13.25      -9999      2.84       3838.5     24.64      -9999      14.47      ""         "Medium-grained Sandstone" -9999     
3841.303070704471 -9999      -9999      -9999      -9999      -9999      -9999      -9999      -9999      -9999      -9999      -9999      3838.8     26.61      -9999      14.3       ""         "Medium-grained Sandstone" -9999     
3841.604130775143 5.74       55.36      13.7       12.53      -9999      -9999      -9999      7.27       5.4        -9999      3.64       3839.1     2.86       -9999      12.69      ""         "Medium-grained Sandstone" -9999     
3841.89404058433 -9999      -9999      -9999      -9999      -9999      -9999      -9999      -9999      -9999      -9999      -9999      3839.389   3.65       -9999      12.1       ""         "Fine/Medium-grained Sandstone" -9999     
