~Version
 VERS              .         2.0                           : CWLS LOG ASCII STANDARD - VERSION 2.0
 WRAP              .         NO                            : ONE LINE PER DEPTH STEP
 DLM               .         SPACE                         : DELIMITING CHARACTER(SPACE TAB OR COMMA)
~Well Information
#_______________________________________________________________________________
#
#PARAMETER_NAME    .UNIT     VALUE                         : DESCRIPTION
#_______________________________________________________________________________
STRT               .m        3135                          : First reference value
STOP               .m        3867.25593922952              : Last reference value
STEP               .m        0                             : Step increment
NULL               .         -9999                         : Missing value
COMP               .                                       : Company
WELL               .         19                            : Well name
FLD                .         Zh_Khrest                     : Field
LOC                .                                       : Location
CNTY               .                                       : County
STAT               .                                       : State
CTRY               .                                       : Country
SRVC               .                                       : Service Company
DATE               .         11/06/2019                    : Date
UWI                .                                       : Unique Well ID
API                .                                       : API NUMBER
ORIGINALWELLNAME   .         019                           : 
WSTA               .         LOC                           : Well status
TVD                .         NO                            : TVD flag
w_prop             .unitless c                             : 
~Parameter Information Block
#_______________________________________________________________________________
#
#PARAMETER_NAME    .UNIT     VALUE                         : DESCRIPTION
#_______________________________________________________________________________
SET                .         Core                          : 
TLFamily_0_05-0_01mm .                                       : 
TLFamily_0_10-0_05mm .                                       : 
TLFamily_0_25-0_1mm .                                       : 
TLFamily_0_5-0_25mm .                                       : 
TLFamily_2-1mm     .                                       : 
TLFamily_3-2mm     .                                       : 
TLFamily_3mm       .                                       : 
TLFamily_Bulk_Density,_g/cm3 .                                       : 
TLFamily_CaCO3,_%  .                                       : 
TLFamily_DEPTH     .         Measured Depth                : 
TLFamily_DEPTH_ORIGINAL .         Measured Depth                : 
TLFamily_Permeability_horizontal,_mD .                                       : 
TLFamily_Permeability_vertical,_mD .                                       : 
TLFamily_Porosity,_% .                                       : 
TLFamily_Remarks   .                                       : 
TLFamily_Rock_Description .                                       : 
TLFamily_Water_saturation,_% .                                       : 
TLFamily__0_01mm   .                                       : 
TLFamily__0_5mm    .                                       : 
~Curve Information
#_______________________________________________________________________________
#
#LOGNAME           .UNIT     LOG_ID                        : DESCRIPTION
#_______________________________________________________________________________
DEPTH              .m                                      :  
0_05-0_01mm        .%                                      :  
0_5-0_25mm         .%                                      :  
0_10-0_05mm        .%                                      :  
0_25-0_1mm         .%                                      :  
2-1mm              .%                                      :  
3-2mm              .%                                      :  
3mm                .%                                      :  
_0_01mm            .%                                      :  
_0_5mm             .%                                      :  
Bulk_Density,_g/cm3 .g/cm3                                  :  
CaCO3,_%           .%                                      :  
DEPTH_ORIGINAL     .m                                      :  
Permeability_horizontal,_mD .mD                                     :  
Permeability_vertical,_mD .mD                                     :  
Porosity,_%        .%                                      :  
Remarks            .                                       :  
Rock_Description   .                                       :  
Water_saturation,_% .%                                      :  
~Ascii
# ...
3750.373691118018 3.07       31.53      6.64       18.54      -9999      -9999      -9999      1.13       39.05      -9999      8.67       3752.417   33.15      -9999      13.86      ""         "Sandstone (different grains)" -9999     
3750.77290513896 -9999      -9999      -9999      -9999      -9999      -9999      -9999      -9999      -9999      -9999      -9999      3752.833   30.34      -9999      15.26      ""         "Sandstone (different grains)" -9999     
3751.172120118018 3.59       39.3       7.25       22.96      -9999      -9999      -9999      4.72       22.18      -9999      5.3        3753.25    73.49      -9999      15.74      ""         "Sandstone (different grains)" -9999     
3751.571335097075 -9999      -9999      -9999      -9999      -9999      -9999      -9999      -9999      -9999      -9999      7.09       3753.667   32.11      -9999      16.53      ""         "Sandstone (different grains)" -9999     
3751.970549118018 5.17       25.06      7.46       22.25      -9999      -9999      -9999      7.61       32.45      -9999      9.79       3754.083   17.35      -9999      14.12      ""         "Sandstone (different grains)" -9999     
3752.369764097075 5.49       40.04      8.64       30.09      -9999      -9999      -9999      8.13       7.61       -9999      8.96       3754.5     65.5       -9999      15.52      ""         "Medium grained Sandstone" -9999     
3752.768979076133 -9999      -9999      -9999      -9999      -9999      -9999      -9999      -9999      -9999      -9999      -9999      3754.917   63.11      -9999      15.07      ""         "Medium grained Sandstone" -9999     
3753.168193097075 -9999      -9999      -9999      -9999      -9999      -9999      -9999      -9999      -9999      -9999      7.45       3755.333   27.84      -9999      14.91      ""         "Sandstone (different grains)" -9999     
3753.567408076133 3.84       33.84      6.7        22.26      -9999      -9999      -9999      4.05       29.31      -9999      4.45       3755.75    17.12      -9999      14.38      ""         "Sandstone (different grains)" -9999     
3753.96662305519 2.65       32.76      5.58       18.6       -9999      -9999      -9999      3.93       36.48      -9999      6.78       3756.167   106.5      -9999      15.67      ""         "Sandstone (different grains)" -9999     
3754.365837076133 32.25      0.14       33.29      15.61      -9999      -9999      -9999      18.71      -9999      -9999      3.44       3756.583   0.98       -9999      4.19       fractures  Siltstone  -9999     
3755.266922369327 7.14       16.39      14.85      17.79      -9999      -9999      -9999      10.43      33.4       -9999      4.8        3757.524   -9999      -9999      13.71      "Permeability could not be measured, sample damaged/split." "Sandstone (different grains)" -9999     
3755.768791725348 9.04       36.59      12.73      29.65      -9999      -9999      -9999      5.7        6.29       -9999      7.83       3758.048   16.51      -9999      15.58      ""         "Sandstone (different grains)" -9999     
3756.410045542781 -9999      -9999      -9999      -9999      -9999      -9999      -9999      -9999      -9999      -9999      -9999      3758.572   56.32      -9999      15.96      ""         "Sandstone (different grains)" -9999     
3757.118728307486 1.7        48         4.44       16.79      -9999      -9999      -9999      3.77       25.3       -9999      9.84       3759.095   -9999      -9999      13.22      "Permeability could not be measured, sample damaged/split." "Sandstone (different grains)" -9999     
3757.827412425134 -9999      -9999      -9999      -9999      -9999      -9999      -9999      -9999      -9999      -9999      -9999      3759.619   97.3       -9999      18.57      ""         "Sandstone (different grains)" -9999     
3758.536095189839 5.46       17.89      7.54       54.67      -9999      -9999      -9999      5.03       9.41       -9999      4.2        3760.143   -9999      -9999      14.25      "Permeability could not be measured, sample damaged/split." "Fine-grained Sandstone" -9999     
3759.244779307487 3.21       50.77      3.91       22.84      -9999      -9999      -9999      3.56       15.71      -9999      4.51       3760.667   80.24      -9999      19.55      ""         "Medium-grained Sandstone" 18.2      
3759.953462072193 -9999      -9999      -9999      -9999      -9999      -9999      -9999      -9999      -9999      -9999      6.61       3761.19    27         -9999      16.18      ""         "Medium-grained Sandstone" -9999     
3760.662146189839 2.52       71.95      8.15       11.25      -9999      -9999      -9999      2.24       3.89       -9999      7.56       3761.714   31.98      -9999      16.52      ""         "Medium-grained Sandstone" -9999     
3761.370828954546 -9999      -9999      -9999      -9999      -9999      -9999      -9999      -9999      -9999      -9999      -9999      3762.238   -9999      -9999      16.02      "Permeability could not be measured, sample damaged/split." "Medium-grained Sandstone" -9999     
3762.079513072192 -9999      -9999      -9999      -9999      -9999      -9999      -9999      -9999      -9999      -9999      -9999      3762.762   79.03      -9999      14.97      ""         "Coarse-grained Sandstone" -9999     
3762.788195836899 -9999      -9999      -9999      -9999      -9999      -9999      -9999      -9999      -9999      -9999      2.56       3763.286   85.74      -9999      17.23      ""         "Coarse-grained Sandstone" -9999     
3763.496879954545 3.21       63.41      11.27      14.69      -9999      -9999      -9999      4          3.42       -9999      6.53       3763.81    19.11      -9999      16.83      ""         "Medium grained Sandstone" -9999     
3764.205562719251 2.43       76.15      7.09       8.48       -9999      -9999      -9999      5.02       0.83       -9999      4.012      3764.333   6          -9999      15.7       ""         "Medium grained Sandstone" -9999     
3764.914246836899 1.67       74.39      6.18       8.54       -9999      -9999      -9999      5.4        3.82       -9999      3.95       3764.857   162.03     -9999      18.34      ""         "Medium grained Sandstone" 19.8      
3765.622929601604 -9999      -9999      -9999      -9999      -9999      -9999      -9999      -9999      -9999      -9999      5.69       3765.381   5.06       -9999      14.25      ""         "Medium grained Sandstone" -9999     
3766.331613719251 3          50.94      10.96      25.19      -9999      -9999      -9999      9.49       0.42       -9999      4.49       3765.905   11.68      -9999      16.61      ""         "Medium grained Sandstone" -9999     
3767.040296483957 -9999      -9999      -9999      -9999      -9999      -9999      -9999      -9999      -9999      -9999      3.4        3766.428   13.54      -9999      16         ""         "Medium grained Sandstone" -9999     
3767.748980601604 -9999      -9999      -9999      -9999      -9999      -9999      -9999      -9999      -9999      -9999      3.72       3766.952   7.03       -9999      17.49      ""         "Fine-grained Sandstone" -9999     
3768.45766336631 14.05      10.65      18         40.18      -9999      -9999      -9999      13.39      3.73       -9999      8.95       3767.476   9.9        -9999      16.07      ""         "Fine-grained Sandstone" -9999     
3770.170484864063 1.32       36.07      3.34       14.62      -9999      -9999      -9999      4.82       39.83      -9999      4.3        3769       270.69     -9999      18.26      ""         "Sandstone (different grains)" 12.7      
3771.196272829679 1.8        69.18      6.99       9          -9999      -9999      -9999      4.65       8.38       -9999      3.61       3770       191        -9999      18.6       ""         "Medium-grained Sandstone" 23.3      
3772.222060795295 2.44       48.54      7.81       9.9        -9999      -9999      -9999      6.76       24.55      -9999      4.21       3771       57.06      -9999      16.5       ""         "Coarse/Medium-grained Sandstone" 23.3      
