~Version
 VERS              .         2.0                           : CWLS LOG ASCII STANDARD - VERSION 2.0
 WRAP              .         NO                            : ONE LINE PER DEPTH STEP
 DLM               .         SPACE                         : DELIMITING CHARACTER(SPACE TAB OR COMMA)
~Well Information
#_______________________________________________________________________________
#
#PARAMETER_NAME    .UNIT     VALUE                         : DESCRIPTION
#_______________________________________________________________________________
STRT               .m        3135                          : First reference value
STOP               .m        3867.25593922952              : Last reference value
STEP               .m        0                             : Step increment
NULL               .         -9999                         : Missing value
COMP               .                                       : Company
WELL               .         19                            : Well name
FLD                .         Zh_Khrest                     : Field
LOC                .                                       : Location
CNTY               .                                       : County
STAT               .                                       : State
CTRY               .                                       : Country
SRVC               .                                       : Service Company
DATE               .         11/06/2019                    : Date
UWI                .                                       : Unique Well ID
API                .                                       : API NUMBER
ORIGINALWELLNAME   .         019                           : 
WSTA               .         LOC                           : Well status
TVD                .         NO                            : TVD flag
w_prop             .unitless c                             : 
~Parameter Information Block
#_______________________________________________________________________________
#
#PARAMETER_NAME    .UNIT     VALUE                         : DESCRIPTION
#_______________________________________________________________________________
SET                .         Core                          : 
TLFamily_0_05-0_01mm .                                       : 
TLFamily_0_10-0_05mm .                                       : 
TLFamily_0_25-0_1mm .                                       : 
TLFamily_0_5-0_25mm .                                       : 
TLFamily_2-1mm     .                                       : 
TLFamily_3-2mm     .                                       : 
TLFamily_3mm       .                                       : 
TLFamily_Bulk_Density,_g/cm3 .                                       : 
TLFamily_CaCO3,_%  .                                       : 
TLFamily_DEPTH     .         Measured Depth                : 
TLFamily_DEPTH_ORIGINAL .         Measured Depth                : 
TLFamily_Permeability_horizontal,_mD .                                       : 
TLFamily_Permeability_vertical,_mD .                                       : 
TLFamily_Porosity,_% .                                       : 
TLFamily_Remarks   .                                       : 
TLFamily_Rock_Description .                                       : 
TLFamily_Water_saturation,_% .                                       : 
TLFamily__0_01mm   .                                       : 
TLFamily__0_5mm    .                                       : 
~Curve Information
#_______________________________________________________________________________
#
#LOGNAME           .UNIT     LOG_ID                        : DESCRIPTION
#_______________________________________________________________________________
DEPTH              .m                                      :  
0_05-0_01mm        .%                                      :  
0_5-0_25mm         .%                                      :  
0_10-0_05mm        .%                                      :  
0_25-0_1mm         .%                                      :  
2-1mm              .%                                      :  
3-2mm              .%                                      :  
3mm                .%                                      :  
_0_01mm            .%                                      :  
_0_5mm             .%                                      :  
Bulk_Density,_g/cm3 .g/cm3                                  :  
CaCO3,_%           .%                                      :  
DEPTH_ORIGINAL     .m                                      :  
Permeability_horizontal,_mD .mD                                     :  
Permeability_vertical,_mD .mD                                     :  
Porosity,_%        .%                                      :  
Remarks            .                                       :  
Rock_Description   .                                       :  
Water_saturation,_% .%                                      :  
~Ascii
# ...
3724.808344250299 -9999      -9999      -9999      -9999      -9999      -9999      -9999      -9999      -9999      -9999      7.44       3725.091   9.83       -9999      15.3       ""         "Fine/Medium-grained Sandstone" -9999     
3725.040879902931 -9999      -9999      -9999      -9999      -9999      -9999      -9999      -9999      -9999      -9999      6.7        3725.364   10.22      -9999      14.98      ""         "Fine/Medium-grained Sandstone" -9999     
3725.273416408194 9.81       15.14      8.74       49.68      -9999      -9999      -9999      14.92      1.71       -9999      6.29       3725.636   16.5       -9999      14.45      ""         "Fine/Medium-grained Sandstone" -9999     
3725.505952060826 -9999      -9999      -9999      -9999      -9999      -9999      -9999      -9999      -9999      -9999      7.36       3725.909   1.43       -9999      13.67      ""         "Fine/Medium-grained Sandstone" -9999     
3725.738487713457 -9999      -9999      -9999      -9999      -9999      -9999      -9999      -9999      -9999      -9999      8.12       3726.182   3.63       -9999      14.13      ""         "Fine/Medium-grained Sandstone" -9999     
3725.971023366089 -9999      -9999      -9999      -9999      -9999      -9999      -9999      -9999      -9999      -9999      3.2        3726.455   11.9       -9999      14.32      ""         "Medium grained Sandstone" -9999     
3726.203559871352 -9999      -9999      -9999      -9999      -9999      -9999      -9999      -9999      -9999      -9999      -9999      3726.727   2.1        -9999      13.99      ""         "Fine-grained Sandstone" -9999     
3726.675898155563 3.59       68.09      10.08      15.65      -9999      -9999      -9999      1.14       1.45       -9999      6.7        3727.281   26.27      -9999      15.34      ""         "Medium grained Sandstone" -9999     
3726.915700787142 2.53       64.62      9.91       16.57      -9999      -9999      -9999      4.34       2.03       -9999      7.9        3727.563   47.89      -9999      15.04      ""         "Medium grained Sandstone" 29.2      
3727.15550341872 -9999      -9999      -9999      -9999      -9999      -9999      -9999      -9999      -9999      -9999      9.87       3727.844   10.28      -9999      13.59      ""         "Medium grained Sandstone" -9999     
3727.3953060503 -9999      -9999      -9999      -9999      -9999      -9999      -9999      -9999      -9999      -9999      -9999      3728.125   18.02      -9999      14.63      ""         "Medium grained Sandstone" 34.2      
3727.635108681879 -9999      -9999      -9999      -9999      -9999      -9999      -9999      -9999      -9999      -9999      -9999      3728.406   38.94      -9999      15.83      ""         "Medium grained Sandstone" -9999     
3727.874911313457 -9999      -9999      -9999      -9999      -9999      -9999      -9999      -9999      -9999      -9999      5.18       3728.688   -9999      -9999      10.81      "Permeability could not be measured, sample damaged/split." "Sandy Siltstone" -9999     
3728.114713945036 14.58      0.71       41.18      33.29      -9999      -9999      -9999      10.24      -9999      -9999      6.28       3728.969   0.44       -9999      10.36      ""         "Sandy Siltstone" -9999     
3728.354516576615 -9999      -9999      -9999      -9999      -9999      -9999      -9999      -9999      -9999      -9999      5.18       3729.25    -9999      -9999      10.26      "Permeability could not be measured, sample damaged/split." "Sandy Siltstone" -9999     
3728.594319208194 -9999      -9999      -9999      -9999      -9999      -9999      -9999      -9999      -9999      -9999      -9999      3729.531   1.77       -9999      13.5       ""         "Medium grained Sandstone" -9999     
3728.834121839773 -9999      -9999      -9999      -9999      -9999      -9999      -9999      -9999      -9999      -9999      -9999      3729.813   3.95       -9999      14.15      ""         "Medium grained Sandstone" -9999     
3729.073924471352 -9999      -9999      -9999      -9999      -9999      -9999      -9999      -9999      -9999      -9999      -9999      3730.094   2.5        -9999      12.85      ""         "Medium grained Sandstone" -9999     
3729.313727102931 6.21       48.45      8.74       31.62      -9999      -9999      -9999      3.1        1.88       -9999      7.68       3730.375   2.49       -9999      12.68      ""         "Medium grained Sandstone" -9999     
3729.55352973451 -9999      -9999      -9999      -9999      -9999      -9999      -9999      -9999      -9999      -9999      -9999      3730.656   30.82      -9999      15.02      ""         "Medium grained Sandstone" -9999     
3729.794175091839 12.02      44.66      7.17       31.74      -9999      -9999      -9999      2.32       2.09       -9999      10.75      3730.938   16.97      -9999      15.91      ""         "Medium grained Sandstone" -9999     
3730.063644987127 8.96       46.29      11.3       27.66      -9999      -9999      -9999      2.78       3.01       -9999      7.6        3731.219   43.62      -9999      15.58      ""         "Medium grained Sandstone" -9999     
3730.333114882415 3.83       65.17      11.19      14.51      -9999      -9999      -9999      4.64       0.66       -9999      9.44       3731.5     19.46      -9999      14.5       ""         "Medium grained Sandstone" 32        
3730.602584777703 3.35       63.04      10.57      17.03      -9999      -9999      -9999      3.58       2.43       -9999      12.34      3731.781   27         -9999      14.56      ""         "Medium grained Sandstone" -9999     
3730.872054672992 3.15       66.86      8.5        12.03      -9999      -9999      -9999      4.48       4.98       -9999      9.04       3732.063   45.7       -9999      16.63      ""         "Medium grained Sandstone" -9999     
3731.141524568279 -9999      -9999      -9999      -9999      -9999      -9999      -9999      -9999      -9999      -9999      6.77       3732.344   16.74      -9999      14.92      ""         "Medium grained Sandstone" -9999     
3731.410994463567 -9999      -9999      -9999      -9999      -9999      -9999      -9999      -9999      -9999      -9999      7.91       3732.625   30.34      -9999      15.44      ""         "Medium grained Sandstone" -9999     
3731.680464358855 -9999      -9999      -9999      -9999      -9999      -9999      -9999      -9999      -9999      -9999      8.56       3732.906   16.14      -9999      14.8       ""         "Medium grained Sandstone" -9999     
3731.949934254143 5.31       53.35      14.56      18.27      -9999      -9999      -9999      7.56       0.95       -9999      8.4        3733.188   23.38      -9999      15.6       ""         "Medium grained Sandstone" -9999     
3732.219404149431 4          64.03      9.75       13.04      -9999      -9999      -9999      4.62       4.56       -9999      4.91       3733.469   47.76      -9999      15.71      ""         "Medium grained Sandstone" -9999     
3732.488874044719 3.18       63.66      9.9        15.39      -9999      -9999      -9999      6.42       1.45       -9999      7.72       3733.75    17.48      -9999      15.03      ""         "Medium grained Sandstone" -9999     
3732.758343940007 -9999      -9999      -9999      -9999      -9999      -9999      -9999      -9999      -9999      -9999      -9999      3734.031   39.52      -9999      15.8       ""         "Medium grained Sandstone" 30.6      
3733.027813835295 -9999      -9999      -9999      -9999      -9999      -9999      -9999      -9999      -9999      -9999      -9999      3734.313   69.36      -9999      16.99      ""         "Medium grained Sandstone" -9999     
3733.297283730583 4.36       62.98      10.87      13.08      -9999      -9999      -9999      7.67       1.04       -9999      3.66       3734.594   73.26      -9999      15.97      ""         "Medium grained Sandstone" 27.9      
3733.566753625871 -9999      -9999      -9999      -9999      -9999      -9999      -9999      -9999      -9999      -9999      5.37       3734.875   48.57      -9999      15.82      ""         "Medium grained Sandstone" -9999     
