~Version
 VERS              .         2.0                           : CWLS LOG ASCII STANDARD - VERSION 2.0
 WRAP              .         NO                            : ONE LINE PER DEPTH STEP
 DLM               .         SPACE                         : DELIMITING CHARACTER(SPACE TAB OR COMMA)
~Well Information
#_______________________________________________________________________________
#
#PARAMETER_NAME    .UNIT     VALUE                         : DESCRIPTION
#_______________________________________________________________________________
STRT               .m        3135                          : First reference value
STOP               .m        3867.25593922952              : Last reference value
STEP               .m        0                             : Step increment
NULL               .         -9999                         : Missing value
COMP               .                                       : Company
WELL               .         19                            : Well name
FLD                .         Zh_Khrest                     : Field
LOC                .                                       : Location
CNTY               .                                       : County
STAT               .                                       : State
CTRY               .                                       : Country
SRVC               .                                       : Service Company
DATE               .         11/06/2019                    : Date
UWI                .                                       : Unique Well ID
API                .                                       : API NUMBER
ORIGINALWELLNAME   .         019                           : 
WSTA               .         LOC                           : Well status
TVD                .         NO                            : TVD flag
w_prop             .unitless c                             : 
~Parameter Information Block
#_______________________________________________________________________________
#
#PARAMETER_NAME    .UNIT     VALUE                         : DESCRIPTION
#_______________________________________________________________________________
SET                .         Core                          : 
TLFamily_0_05-0_01mm .                                       : 
TLFamily_0_10-0_05mm .                                       : 
TLFamily_0_25-0_1mm .                                       : 
TLFamily_0_5-0_25mm .                                       : 
TLFamily_2-1mm     .                                       : 
TLFamily_3-2mm     .                                       : 
TLFamily_3mm       .                                       : 
TLFamily_Bulk_Density,_g/cm3 .                                       : 
TLFamily_CaCO3,_%  .                                       : 
TLFamily_DEPTH     .         Measured Depth                : 
TLFamily_DEPTH_ORIGINAL .         Measured Depth                : 
TLFamily_Permeability_horizontal,_mD .                                       : 
TLFamily_Permeability_vertical,_mD .                                       : 
TLFamily_Porosity,_% .                                       : 
TLFamily_Remarks   .                                       : 
TLFamily_Rock_Description .                                       : 
TLFamily_Water_saturation,_% .                                       : 
TLFamily__0_01mm   .                                       : 
TLFamily__0_5mm    .                                       : 
~Curve Information
#_______________________________________________________________________________
#
#LOGNAME           .UNIT     LOG_ID                        : DESCRIPTION
#_______________________________________________________________________________
DEPTH              .m                                      :  
0_05-0_01mm        .%                                      :  
0_5-0_25mm         .%                                      :  
0_10-0_05mm        .%                                      :  
0_25-0_1mm         .%                                      :  
2-1mm              .%                                      :  
3-2mm              .%                                      :  
3mm                .%                                      :  
_0_01mm            .%                                      :  
_0_5mm             .%                                      :  
Bulk_Density,_g/cm3 .g/cm3                                  :  
CaCO3,_%           .%                                      :  
DEPTH_ORIGINAL     .m                                      :  
Permeability_horizontal,_mD .mD                                     :  
Permeability_vertical,_mD .mD                                     :  
Porosity,_%        .%                                      :  
Remarks            .                                       :  
Rock_Description   .                                       :  
Water_saturation,_% .%                                      :  
~Ascii
# ...
3841.905190845814 1.8        19.49      3.12       7.49       -9999      -9999      -9999      1.46       66.64      -9999      3.84       3839.4     -9999      -9999      12.91      "Permeability could not be measured, sample damaged/split." "Gravel Sandstone" -9999     
3842.206250916485 9.18       23.36      14.18      37.53      -9999      -9999      -9999      12.94      2.81       -9999      2.7        3839.7     1.25       -9999      11.21      ""         "Sandstone (different grains)" -9999     
3842.897574153234 -9999      -9999      -9999      -9999      -9999      -9999      -9999      -9999      -9999      -9999      -9999      3840.389   7.67       -9999      13.71      ""         "Medium-grained Sandstone" -9999     
3843.232085008358 -9999      -9999      -9999      -9999      -9999      -9999      -9999      -9999      -9999      -9999      -9999      3840.722   0.3        -9999      7.81       ""         "Fine/Medium-grained Sandstone" -9999     
3843.901107722139 4.26       61.47      11.91      15.15      -9999      -9999      -9999      5.59       1.62       -9999      9.3        3841.389   3.52       -9999      11.83      ""         "Medium-grained Sandstone" 41.3      
3843.95685902956 6.73       51.5       9.04       19.21      -9999      -9999      -9999      7.69       5.83       -9999      10.78      3841.444   0.88       -9999      10         ""         "Medium-grained Sandstone" -9999     
3844.681634054295 1.57       46.75      6.21       17.13      -9999      -9999      -9999      5.21       23.13      -9999      6.61       3842.167   26.26      -9999      14.49      ""         "Sandstone (different grains)" -9999     
3844.904641291043 -9999      -9999      -9999      -9999      -9999      -9999      -9999      -9999      -9999      -9999      4.45       3842.389   6.3        -9999      13.11      ""         "Medium-grained Sandstone" -9999     
3845.406408075496 6.37       35.72      7.38       14.86      -9999      -9999      -9999      4.11       31.55      -9999      8.95       3842.889   11.91      -9999      13.37      ""         "Sandstone (different grains)" -9999     
3845.908174859948 3.72       61.36      11.43      13.32      -9999      -9999      -9999      7.65       2.52       -9999      4.91       3843.389   2.16       -9999      12.89      ""         "Medium-grained Sandstone" 45.4      
3846.131182096698 6.43       33.97      18.86      33.83      -9999      -9999      -9999      5.64       1.27       -9999      5.6        3843.611   0.74       -9999      9.94       ""         "Sandstone (different grains)" -9999     
3846.855956117899 -9999      -9999      -9999      -9999      -9999      -9999      -9999      -9999      -9999      -9999      -9999      3844.333   0.65       -9999      9.55       ""         "Sandstone (different grains)" -9999     
3846.911708428853 4.33       58.88      12.45      16.15      -9999      -9999      -9999      7.29       0.9        -9999      4.7        3844.389   5.11       -9999      13.85      ""         "Medium-grained Sandstone" -9999     
3847.580731142633 -9999      -9999      -9999      -9999      -9999      -9999      -9999      -9999      -9999      -9999      4.37       3845.056   90.79      -9999      13.77      ""         "Coarse-grained Sandstone" 20.1      
3847.915241997757 -9999      -9999      -9999      -9999      -9999      -9999      -9999      -9999      -9999      -9999      -9999      3845.389   1.94       -9999      11.96      ""         "Coarse/Medium-grained Sandstone" -9999     
3848.305505163835 1.46       23.9       0.29       0.6        -9999      -9999      -9999      3.79       69.96      -9999      8.81       3845.778   90.55      -9999      14.29      ""         "Coarse-grained Sandstone" 20.04     
3848.918775566662 -9999      -9999      -9999      -9999      -9999      -9999      -9999      -9999      -9999      -9999      -9999      3846.389   2.18       -9999      12.46      ""         "Coarse/Medium-grained Sandstone" -9999     
3849.030279185036 4.48       30.06      5.83       13.08      -9999      -9999      -9999      0          46.55      -9999      6.2        3846.5     80.08      -9999      15.49      ""         "Coarse-grained Sandstone" -9999     
3849.755053206238 3.69       20.24      3.27       8.41       -9999      -9999      -9999      0.34       64.05      -9999      4.1        3847.222   145.34     -9999      14.8       ""         "Coarse-grained Sandstone" 22.1      
3849.922309135567 3.95       47.6       11.92      17.16      -9999      -9999      -9999      3.43       15.94      -9999      7.16       3847.389   1.45       -9999      11.84      ""         "Coarse/Medium-grained Sandstone" -9999     
3850.47982722744 7.8        36.57      8.93       32.18      -9999      -9999      -9999      5.59       8.93       -9999      5.95       3847.944   2.65       -9999      12.98      ""         "Sandstone (different grains)" 45.1      
3850.925842704471 1.38       40.17      7.48       9.97       -9999      -9999      -9999      14.48      26.52      -9999      3.77       3848.389   17.6       -9999      12.28      ""         "Coarse/Medium-grained Sandstone" 30.8      
3851.204602252175 5.4        54.74      4.96       8.47       -9999      -9999      -9999      1.69       24.74      -9999      8.65       3848.667   11.42      -9999      13.3       ""         "Coarse/Medium-grained Sandstone" 34.4      
3851.929376273376 -9999      -9999      -9999      -9999      -9999      -9999      -9999      -9999      -9999      -9999      -9999      3849.389   9.36       -9999      14.2       ""         "Coarse/Medium-grained Sandstone" -9999     
3852.654150294577 1.94       12.82      4.47       11.38      -9999      -9999      -9999      -9999      69.45      -9999      7.5        3850.111   189.95     -9999      13.27      ""         "Sandstone Coarse Gravel" -9999     
3853.378924315779 -9999      -9999      -9999      -9999      -9999      -9999      -9999      -9999      -9999      -9999      -9999      3850.833   9.43       -9999      12.88      ""         "Sandstone with a change in the composition of grains from medium to gravel" -9999     
3854.103699340513 4.62       33.1       6.53       17.54      -9999      -9999      -9999      2.56       35.65      -9999      6.1        3851.556   23.58      -9999      13.24      ""         "Medium/Coarse-grained Sandstone" -9999     
3854.828473361715 2.98       18.44      4.11       11.83      -9999      -9999      -9999      0.06       65.58      -9999      5.88       3852.278   147.13     -9999      13.37      ""         "Gravel Sandstone" -9999     
3855.870152245107 7.3        48.56      10.83      24.91      -9999      -9999      -9999      3.02       5.38       -9999      9.55       3853.316   7.97       -9999      12.97      ""         "Fine/Medium-grained Sandstone" -9999     
3856.187058110832 11.33      20.52      13.78      47.11      -9999      -9999      -9999      7.04       0.22       -9999      10         3853.632   1.42       -9999      11.37      ""         "Medium/Fine-grained Sandstone" -9999     
3856.503962973023 -9999      -9999      -9999      -9999      -9999      -9999      -9999      -9999      -9999      -9999      -9999      3853.947   2.74       -9999      12.32      ""         "Medium/Fine-grained Sandstone" -9999     
3856.820868838747 11.7       3.16       15.28      59.22      -9999      -9999      -9999      10.63      -9999      -9999      7.12       3854.263   1.52       -9999      12.39      ""         "Fine-grained Sandstone" -9999     
3857.137773700938 8.34       20.2       14.38      49.39      -9999      -9999      -9999      7.55       0.14       -9999      7.28       3854.579   3.09       -9999      12.54      ""         "Medium/Fine-grained Sandstone" -9999     
3857.454679566662 -9999      -9999      -9999      -9999      -9999      -9999      -9999      -9999      -9999      -9999      -9999      3854.895   1.28       -9999      11.54      ""         "Fine/Medium-grained Sandstone" -9999     
