~Version
 VERS              .         2.0                           : CWLS LOG ASCII STANDARD - VERSION 2.0
 WRAP              .         NO                            : ONE LINE PER DEPTH STEP
 DLM               .         SPACE                         : DELIMITING CHARACTER(SPACE TAB OR COMMA)
~Well Information
#_______________________________________________________________________________
#
#PARAMETER_NAME    .UNIT     VALUE                         : DESCRIPTION
#_______________________________________________________________________________
STRT               .m        3135                          : First reference value
STOP               .m        3867.25593922952              : Last reference value
STEP               .m        0                             : Step increment
NULL               .         -9999                         : Missing value
COMP               .                                       : Company
WELL               .         19                            : Well name
FLD                .         Zh_Khrest                     : Field
LOC                .                                       : Location
CNTY               .                                       : County
STAT               .                                       : State
CTRY               .                                       : Country
SRVC               .                                       : Service Company
DATE               .         11/06/2019                    : Date
UWI                .                                       : Unique Well ID
API                .                                       : API NUMBER
ORIGINALWELLNAME   .         019                           : 
WSTA               .         LOC                           : Well status
TVD                .         NO                            : TVD flag
w_prop             .unitless c                             : 
~Parameter Information Block
#_______________________________________________________________________________
#
#PARAMETER_NAME    .UNIT     VALUE                         : DESCRIPTION
#_______________________________________________________________________________
SET                .         Core                          : 
TLFamily_0_05-0_01mm .                                       : 
TLFamily_0_10-0_05mm .                                       : 
TLFamily_0_25-0_1mm .                                       : 
TLFamily_0_5-0_25mm .                                       : 
TLFamily_2-1mm     .                                       : 
TLFamily_3-2mm     .                                       : 
TLFamily_3mm       .                                       : 
TLFamily_Bulk_Density,_g/cm3 .                                       : 
TLFamily_CaCO3,_%  .                                       : 
TLFamily_DEPTH     .         Measured Depth                : 
TLFamily_DEPTH_ORIGINAL .         Measured Depth                : 
TLFamily_Permeability_horizontal,_mD .                                       : 
TLFamily_Permeability_vertical,_mD .                                       : 
TLFamily_Porosity,_% .                                       : 
TLFamily_Remarks   .                                       : 
TLFamily_Rock_Description .                                       : 
TLFamily_Water_saturation,_% .                                       : 
TLFamily__0_01mm   .                                       : 
TLFamily__0_5mm    .                                       : 
~Curve Information
#_______________________________________________________________________________
#
#LOGNAME           .UNIT     LOG_ID                        : DESCRIPTION
#_______________________________________________________________________________
DEPTH              .m                                      :  
0_05-0_01mm        .%                                      :  
0_5-0_25mm         .%                                      :  
0_10-0_05mm        .%                                      :  
0_25-0_1mm         .%                                      :  
2-1mm              .%                                      :  
3-2mm              .%                                      :  
3mm                .%                                      :  
_0_01mm            .%                                      :  
_0_5mm             .%                                      :  
Bulk_Density,_g/cm3 .g/cm3                                  :  
CaCO3,_%           .%                                      :  
DEPTH_ORIGINAL     .m                                      :  
Permeability_horizontal,_mD .mD                                     :  
Permeability_vertical,_mD .mD                                     :  
Porosity,_%        .%                                      :  
Remarks            .                                       :  
Rock_Description   .                                       :  
Water_saturation,_% .%                                      :  
~Ascii
# ...
3656.429668869392 -9999      -9999      -9999      -9999      -9999      -9999      -9999      -9999      -9999      -9999      5.12       3657.125   24.88      -9999      17.34      ""         "Medium coarse Sandstone" -9999     
3656.845449011236 -9999      -9999      -9999      -9999      -9999      -9999      -9999      -9999      -9999      -9999      -9999      3657.563   26.31      -9999      15.38      ""         "Medium coarse Sandstone" -9999     
3657.919167252371 -9999      -9999      -9999      -9999      -9999      -9999      -9999      -9999      -9999      -9999      -9999      3658.692   77.8       -9999      17.42      ""         "Medium coarse Sandstone" -9999     
3658.577104401307 -9999      -9999      -9999      -9999      -9999      -9999      -9999      -9999      -9999      -9999      -9999      3659.385   79.23      -9999      16.85      ""         "Medium coarse Sandstone" -9999     
3659.235042500598 9.49       13.31      17.64      45.68      -9999      -9999      -9999      13.8       0.07       -9999      5.9        3660.077   6.99       -9999      15.2       ""         "Fine-grained Sandstone" -9999     
3659.892980599889 11.27      13.78      14.82      44.47      -9999      -9999      -9999      15.45      0.21       -9999      5.51       3660.769   6.24       -9999      14.9       ""         "Fine-grained Sandstone" -9999     
3660.550917748825 7.36       17.96      23.7       35.79      -9999      -9999      -9999      11.81      3.38       -9999      1.24       3661.461   3.47       -9999      15.53      ""         "Fine-grained Sandstone" -9999     
3661.208855848116 10.51      14.54      14.4       46.42      -9999      -9999      -9999      14.13      -9999      -9999      4.17       3662.154   7.16       -9999      15.52      ""         "Fine-grained Sandstone" -9999     
3661.866793947406 -9999      -9999      -9999      -9999      -9999      -9999      -9999      -9999      -9999      -9999      5.69       3662.846   6.7        -9999      14.89      ""         "Fine-grained Sandstone" -9999     
3662.524732046697 8.89       26.68      19.54      33.33      -9999      -9999      -9999      11.56      -9999      -9999      4.78       3663.539   2.2        -9999      14.79      ""         "Fine-grained Sandstone" -9999     
3663.182669195633 9.35       3.88       16.04      54.39      -9999      -9999      -9999      16.34      -9999      -9999      7.3        3664.231   0.42       -9999      9.64       ""         "Fine-grained Sandstone" -9999     
3663.840607294924 6.41       36.71      17.41      34.81      -9999      -9999      -9999      4.66       -9999      -9999      8.46       3664.923   0.56       -9999      10.72      ""         "Fine-grained Sandstone" -9999     
3664.498545394215 8.4        32.57      16.74      30.35      -9999      -9999      -9999      11.94      -9999      -9999      3.98       3665.615   0.35       -9999      8.88       ""         "Fine/Medium-grained Sandstone" -9999     
3665.156482543151 35.76      0.14       24.8       4.33       -9999      -9999      -9999      24.97      -9999      -9999      7.52       3666.308   -9999      -9999      4.17       ""         "Fine/Medium-grained Sandstone" -9999     
3672.990719151509 4.73       45.51      13.64      24.77      -9999      -9999      -9999      5.23       6.12       -9999      4.2        3674.455   8.43       -9999      13.88      ""         Siltstone  34.1      
3673.488851754249 -9999      -9999      -9999      -9999      -9999      -9999      -9999      -9999      -9999      -9999      5.18       3674.909   -9999      -9999      14.31      "Permeability could not be measured, sample damaged/split." "Sandstone (different grains)" -9999     
3673.986983261098 -9999      -9999      -9999      -9999      -9999      -9999      -9999      -9999      -9999      -9999      7.48       3675.364   7.11       -9999      14.35      ""         "Sandstone (different grains)" -9999     
3674.485115863838 -9999      -9999      -9999      -9999      -9999      -9999      -9999      -9999      -9999      -9999      8.35       3675.818   2.46       -9999      13.86      ""         "Sandstone (different grains)" -9999     
3674.983247370687 6.1        38.59      20.19      24.29      -9999      -9999      -9999      9.46       1.37       -9999      4.94       3676.273   5.43       -9999      14.71      ""         "Sandstone (different grains)" -9999     
3675.481379973427 6.55       20.5       22.16      35.04      -9999      -9999      -9999      15.25      0.5        -9999      7.3        3676.727   1.55       -9999      12.98      ""         "Sandstone (different grains)" -9999     
3675.979511480276 -9999      -9999      -9999      -9999      -9999      -9999      -9999      -9999      -9999      -9999      7.97       3677.182   3.08       -9999      13.62      ""         "Sandstone (different grains)" -9999     
3676.477644083017 4.71       50.59      14.41      19.68      -9999      -9999      -9999      8.05       2.56       -9999      3.8        3677.636   4.88       -9999      14.44      ""         "Medium grained Sandstone" 35.4      
3676.975775589865 -9999      -9999      -9999      -9999      -9999      -9999      -9999      -9999      -9999      -9999      8.88       3678.091   4.63       -9999      14.68      ""         "Medium grained Sandstone" -9999     
3677.473908192605 14.65      4.96       18.66      52.99      -9999      -9999      -9999      8.74       -9999      -9999      8.53       3678.545   2.04       -9999      13.14      ""         "Medium grained Sandstone" -9999     
3677.972039699455 -9999      -9999      -9999      -9999      -9999      -9999      -9999      -9999      -9999      -9999      6.51       3679       2.18       -9999      13.19      ""         "Fine-grained Sandstone" -9999     
3678.470171206304 -9999      -9999      -9999      -9999      -9999      -9999      -9999      -9999      -9999      -9999      7.73       3679.455   4.1        -9999      13.98      ""         "Fine-grained Sandstone" -9999     
3678.968303809044 9.16       2.53       20.78      57.36      -9999      -9999      -9999      10.97      -9999      -9999      7.63       3679.909   3.55       -9999      13.82      ""         "Fine-grained Sandstone" -9999     
3679.466435315893 3.52       24.65      12.53      21.34      -9999      -9999      -9999      36.27      1.69       -9999      5.3        3680.364   0.37       -9999      10.23      ""         "Sandstone (different grains)" -9999     
3679.964567918633 -9999      -9999      -9999      -9999      -9999      -9999      -9999      -9999      -9999      -9999      7.39       3680.818   0.56       -9999      11.01      ""         "Fine-grained Sandstone" -9999     
3680.462699425482 -9999      -9999      -9999      -9999      -9999      -9999      -9999      -9999      -9999      -9999      -9999      3681.273   -9999      -9999      11.22      fractures  "Fine-grained Sandstone" -9999     
3680.960832028222 6.56       31.38      19.61      32.65      -9999      -9999      -9999      9.8        -9999      -9999      5.48       3681.727   0.74       -9999      12.33      ""         "Mediun/Fine-grained Sandstone" -9999     
3681.458963535071 -9999      -9999      -9999      -9999      -9999      -9999      -9999      -9999      -9999      -9999      6.11       3682.182   11.49      -9999      15.81      ""         "Fine/Medium-grained Sandstone" -9999     
3681.957096137811 -9999      -9999      -9999      -9999      -9999      -9999      -9999      -9999      -9999      -9999      4.46       3682.636   10.11      -9999      15.95      ""         "Fine/Medium-grained Sandstone" -9999     
3682.45522764466 6.93       35.29      19.12      24.58      -9999      -9999      -9999      8.83       5.25       -9999      4.8        3683.091   12.1       -9999      15.34      ""         "Fine/Medium-grained Sandstone" -9999     
3682.9533602474 4.03       46.55      14.88      24.93      -9999      -9999      -9999      4.11       5.5        -9999      9.06       3683.545   8.63       -9999      15.72      ""         "Fine/Medium-grained Sandstone" -9999     
