~Version
 VERS              .         2.0                           : CWLS LOG ASCII STANDARD - VERSION 2.0
 WRAP              .         NO                            : ONE LINE PER DEPTH STEP
 DLM               .         SPACE                         : DELIMITING CHARACTER(SPACE TAB OR COMMA)
~Well Information
#_______________________________________________________________________________
#
#PARAMETER_NAME    .UNIT     VALUE                         : DESCRIPTION
#_______________________________________________________________________________
STRT               .m        3135                          : First reference value
STOP               .m        3867.25593922952              : Last reference value
STEP               .m        0                             : Step increment
NULL               .         -9999                         : Missing value
COMP               .                                       : Company
WELL               .         19                            : Well name
FLD                .         Zh_Khrest                     : Field
LOC                .                                       : Location
CNTY               .                                       : County
STAT               .                                       : State
CTRY               .                                       : Country
SRVC               .                                       : Service Company
DATE               .         11/06/2019                    : Date
UWI                .                                       : Unique Well ID
API                .                                       : API NUMBER
ORIGINALWELLNAME   .         019                           : 
WSTA               .         LOC                           : Well status
TVD                .         NO                            : TVD flag
w_prop             .unitless c                             : 
~Parameter Information Block
#_______________________________________________________________________________
#
#PARAMETER_NAME    .UNIT     VALUE                         : DESCRIPTION
#_______________________________________________________________________________
SET                .         Core                          : 
TLFamily_0_05-0_01mm .                                       : 
TLFamily_0_10-0_05mm .                                       : 
TLFamily_0_25-0_1mm .                                       : 
TLFamily_0_5-0_25mm .                                       : 
TLFamily_2-1mm     .                                       : 
TLFamily_3-2mm     .                                       : 
TLFamily_3mm       .                                       : 
TLFamily_Bulk_Density,_g/cm3 .                                       : 
TLFamily_CaCO3,_%  .                                       : 
TLFamily_DEPTH     .         Measured Depth                : 
TLFamily_DEPTH_ORIGINAL .         Measured Depth                : 
TLFamily_Permeability_horizontal,_mD .                                       : 
TLFamily_Permeability_vertical,_mD .                                       : 
TLFamily_Porosity,_% .                                       : 
TLFamily_Remarks   .                                       : 
TLFamily_Rock_Description .                                       : 
TLFamily_Water_saturation,_% .                                       : 
TLFamily__0_01mm   .                                       : 
TLFamily__0_5mm    .                                       : 
~Curve Information
#_______________________________________________________________________________
#
#LOGNAME           .UNIT     LOG_ID                        : DESCRIPTION
#_______________________________________________________________________________
DEPTH              .m                                      :  
0_05-0_01mm        .%                                      :  
0_5-0_25mm         .%                                      :  
0_10-0_05mm        .%                                      :  
0_25-0_1mm         .%                                      :  
2-1mm              .%                                      :  
3-2mm              .%                                      :  
3mm                .%                                      :  
_0_01mm            .%                                      :  
_0_5mm             .%                                      :  
Bulk_Density,_g/cm3 .g/cm3                                  :  
CaCO3,_%           .%                                      :  
DEPTH_ORIGINAL     .m                                      :  
Permeability_horizontal,_mD .mD                                     :  
Permeability_vertical,_mD .mD                                     :  
Porosity,_%        .%                                      :  
Remarks            .                                       :  
Rock_Description   .                                       :  
Water_saturation,_% .%                                      :  
~Ascii
# ...
3640.117647 7.64       20.16      19.64      48.63      -9999      -9999      -9999      3.93       -9999      -9999      10.08      3640.118   0.58       -9999      11.32      ""         "Medium/Fine-grained Sandstone" -9999     
3640.647059 -9999      -9999      -9999      -9999      -9999      -9999      -9999      -9999      -9999      -9999      -9999      3640.647   0.55       -9999      11.75      ""         "Medium/Fine-grained Sandstone" -9999     
3641.176471 10.43      9.04       17.8       42.42      -9999      -9999      -9999      20.1       -9999      -9999      4.15       3641.177   0.58       -9999      12.15      ""         "Medium/Fine-grained Sandstone" -9999     
3641.705882 -9999      -9999      -9999      -9999      -9999      -9999      -9999      -9999      -9999      -9999      -9999      3641.706   0.53       -9999      12.14      ""         "Fine-grained Sandstone" -9999     
3642.235294 -9999      -9999      -9999      -9999      -9999      -9999      -9999      -9999      -9999      -9999      8.28       3642.235   0.67       -9999      12.1       ""         "Fine-grained Sandstone" -9999     
3642.764706 10.76      16.83      15.19      58.05      -9999      -9999      -9999      -9999      -9999      -9999      18.79      3642.765   0.78       -9999      11.94      ""         "Fine-grained Sandstone" -9999     
3643.285426401307 -9999      -9999      -9999      -9999      -9999      -9999      -9999      -9999      -9999      -9999      8.23       3643.294   0.64       -9999      10.42      ""         "Fine-grained Sandstone" -9999     
3643.788554585704 14.15      13.49      17.14      41.53      -9999      -9999      -9999      13.18      0.51       -9999      8.63       3643.823   1.71       -9999      14.09      ""         "Fine-grained Sandstone" -9999     
3644.291683720456 10.3       12.16      15.15      48.31      -9999      -9999      -9999      14.08      -9999      -9999      3.53       3644.353   2.44       -9999      14.71      ""         "Fine-grained Sandstone" -9999     
3644.794812855208 8.71       21.08      12.16      46.69      -9999      -9999      -9999      11.36      -9999      -9999      7.31       3644.882   8.61       -9999      15.58      ""         "Medium/Fine-grained Sandstone" -9999     
3645.297941989959 -9999      -9999      -9999      -9999      -9999      -9999      -9999      -9999      -9999      -9999      4.46       3645.412   25.21      -9999      17.36      ""         "Medium grain Sandstone" -9999     
3645.801070174357 5.67       27.54      11.42      41.04      -9999      -9999      -9999      14.33      -9999      -9999      3.64       3645.941   15.3       -9999      16.49      ""         "Medium/Fine-grained Sandstone" 25.9      
3646.304199309108 -9999      -9999      -9999      -9999      -9999      -9999      -9999      -9999      -9999      -9999      -9999      3646.471   27.11      -9999      18         ""         "Medium/Fine-grained Sandstone" -9999     
3647.229707848116 7.32       33.78      10.27      34.55      -9999      -9999      -9999      13.24      0.81       -9999      5.25       3647.444   7.98       -9999      14.87      ""         "Medium/Fine-grained Sandstone" 30.9      
3647.652088202725 8.16       35.53      11.06      33.26      -9999      -9999      -9999      11.56      0.43       -9999      5.99       3647.889   35.42      -9999      17.24      ""         "Fine/Medium-grained Sandstone" 23.4      
3648.074467606981 5.14       37.01      9.65       35.21      -9999      -9999      -9999      12.57      0.42       -9999      3.98       3648.333   4.95       -9999      15.42      ""         "Fine/Medium-grained Sandstone" -9999     
3648.496847961591 11.46      19.17      13.51      41.73      -9999      -9999      -9999      13.92      0.21       -9999      5.75       3648.778   12.57      -9999      16.58      ""         "Medium/Fine-grained Sandstone" -9999     
3648.919227365846 4.84       64.16      7.08       16.04      -9999      -9999      -9999      4.63       3.25       -9999      7.71       3649.222   42.64      -9999      17.09      ""         "Medium grain Sandstone" 24.9      
3649.341607720456 -9999      -9999      -9999      -9999      -9999      -9999      -9999      -9999      -9999      -9999      -9999      3649.667   10.9       -9999      15.87      ""         "Medium grain Sandstone" -9999     
3649.763987124712 -9999      -9999      -9999      -9999      -9999      -9999      -9999      -9999      -9999      -9999      4.86       3650.111   39.93      -9999      18.25      ""         "Medium grain Sandstone" -9999     
3650.186367479321 5.38       43.72      8.48       28.14      -9999      -9999      -9999      10.35      3.93       -9999      3.32       3650.556   65.39      -9999      17.26      ""         "Medium/Fine-grained Sandstone" 21.3      
3651.02452702542 -9999      -9999      -9999      -9999      -9999      -9999      -9999      -9999      -9999      -9999      4.87       3651.438   4.2        -9999      14.19      ""         "Medium/Fine-grained Sandstone" -9999     
3651.440307167265 -9999      -9999      -9999      -9999      -9999      -9999      -9999      -9999      -9999      -9999      -9999      3651.875   8.18       -9999      15.53      ""         "Medium/Fine-grained Sandstone" -9999     
3651.856087309108 7.86       32.71      10.71      34.36      -9999      -9999      -9999      13.72      0.64       -9999      6.66       3652.313   4.85       -9999      14.78      ""         "Medium/Fine-grained Sandstone" -9999     
3652.271867450952 7.94       37.39      11.38      24.53      -9999      -9999      -9999      9.76       9          -9999      5.15       3652.75    19.96      -9999      16.49      ""         "Fine/Medium-grained Sandstone" -9999     
3652.687647592796 -9999      -9999      -9999      -9999      -9999      -9999      -9999      -9999      -9999      -9999      -9999      3653.188   2.29       -9999      14.04      ""         "Medium/Fine-grained Sandstone" -9999     
3653.10342773464 -9999      -9999      -9999      -9999      -9999      -9999      -9999      -9999      -9999      -9999      -9999      3653.625   4.72       -9999      13.47      ""         "Medium/Fine-grained Sandstone" -9999     
3653.519207876484 7.35       44.58      10.08      28.97      -9999      -9999      -9999      8.6        0.42       -9999      4.73       3654.063   13.79      -9999      15.59      ""         "Fine/Medium-grained Sandstone" -9999     
3653.934988018328 10.92      11.88      20.15      43.05      -9999      -9999      -9999      14         -9999      -9999      5.7        3654.5     3.97       -9999      14.44      ""         "Fine-grained Sandstone" -9999     
3654.350768160172 -9999      -9999      -9999      -9999      -9999      -9999      -9999      -9999      -9999      -9999      4.86       3654.938   -9999      -9999      15.3       "Permeability could not be measured, sample damaged/split." "Fine-grained Sandstone" -9999     
3654.766548302016 -9999      -9999      -9999      -9999      -9999      -9999      -9999      -9999      -9999      -9999      -9999      3655.375   6.75       -9999      15         ""         "Fine-grained Sandstone" -9999     
3655.18232844386 -9999      -9999      -9999      -9999      -9999      -9999      -9999      -9999      -9999      -9999      4.12       3655.813   139.94     -9999      17.68      ""         "Coarse-grained Sandstone" -9999     
3655.598108585704 -9999      -9999      -9999      -9999      -9999      -9999      -9999      -9999      -9999      -9999      4.79       3656.25    23.12      -9999      16.24      ""         "Coarse/Medium-grained Sandstone" -9999     
3656.013888727548 -9999      -9999      -9999      -9999      -9999      -9999      -9999      -9999      -9999      -9999      4.53       3656.688   -9999      -9999      19.32      "Permeability could not be measured, sample damaged/split." "Coarse-grained Sandstone" -9999     
